linear:
  x: 5.8017449378967285
  y: 0.0
  z: 0.0
angular:
  x: 0.0
  y: 0.0
  z: 34.33046340942383
---
linear:
  x: 5.8017449378967285
  y: 0.0
  z: 0.0
angular:
  x: 0.0
  y: 0.0
  z: 34.33046340942383
---
linear:
  x: 5.721730709075928
  y: 0.0
  z: 0.0
angular:
  x: 0.0
  y: 0.0
  z: 30.860271453857422
---
linear:
  x: 5.74660062789917
  y: 0.0
  z: 0.0
angular:
  x: 0.0
  y: 0.0
  z: 27.372028350830078
---
linear:
  x: 5.74660062789917
  y: 0.0
  z: 0.0
angular:
  x: 0.0
  y: 0.0
  z: 27.372028350830078
---
linear:
  x: 5.858382225036621
  y: 0.0
  z: 0.0
angular:
  x: 0.0
  y: 0.0
  z: 24.259483337402344
---
linear:
  x: 6.023416996002197
  y: 0.0
  z: 0.0
angular:
  x: 0.0
  y: 0.0
  z: 21.549835205078125
---
linear:
  x: 6.023416996002197
  y: 0.0
  z: 0.0
angular:
  x: 0.0
  y: 0.0
  z: 21.549835205078125
---
linear:
  x: 6.207294464111328
  y: 0.0
  z: 0.0
angular:
  x: 0.0
  y: 0.0
  z: 18.919971466064453
---
linear:
  x: 6.207294464111328
  y: 0.0
  z: 0.0
angular:
  x: 0.0
  y: 0.0
  z: 18.919971466064453
---
linear:
  x: 6.382010459899902
  y: 0.0
  z: 0.0
angular:
  x: 0.0
  y: 0.0
  z: 16.65584945678711
---
linear:
  x: 6.529341697692871
  y: 0.0
  z: 0.0
angular:
  x: 0.0
  y: 0.0
  z: 52.401695251464844
---
linear:
  x: 6.529341697692871
  y: 0.0
  z: 0.0
angular:
  x: 0.0
  y: 0.0
  z: 52.401695251464844
---
linear:
  x: 6.629660606384277
  y: 0.0
  z: 0.0
angular:
  x: 0.0
  y: 0.0
  z: 50.483009338378906
---
linear:
  x: 6.682936191558838
  y: 0.0
  z: 0.0
angular:
  x: 0.0
  y: 0.0
  z: 48.83918380737305
---
linear:
  x: 6.682936191558838
  y: 0.0
  z: 0.0
angular:
  x: 0.0
  y: 0.0
  z: 48.83918380737305
---
linear:
  x: 6.682544231414795
  y: 0.0
  z: 0.0
angular:
  x: 0.0
  y: 0.0
  z: 47.20121383666992
---
linear:
  x: 6.682544231414795
  y: 0.0
  z: 0.0
angular:
  x: 0.0
  y: 0.0
  z: 47.20121383666992
---
linear:
  x: 6.530529499053955
  y: 0.0
  z: 0.0
angular:
  x: 0.0
  y: 0.0
  z: 42.300846099853516
---
linear:
  x: 6.322141647338867
  y: 0.0
  z: 0.0
angular:
  x: 0.0
  y: 0.0
  z: 37.25612258911133
---
linear:
  x: 6.322141647338867
  y: 0.0
  z: 0.0
angular:
  x: 0.0
  y: 0.0
  z: 37.25612258911133
---
linear:
  x: 6.183955192565918
  y: 0.0
  z: 0.0
angular:
  x: 0.0
  y: 0.0
  z: 32.41094207763672
---
linear:
  x: 6.207253932952881
  y: 0.0
  z: 0.0
angular:
  x: 0.0
  y: 0.0
  z: 27.516498565673828
---
linear:
  x: 6.207253932952881
  y: 0.0
  z: 0.0
angular:
  x: 0.0
  y: 0.0
  z: 27.516498565673828
---
linear:
  x: 6.373728275299072
  y: 0.0
  z: 0.0
angular:
  x: 0.0
  y: 0.0
  z: 22.857149124145508
---
linear:
  x: 6.373728275299072
  y: 0.0
  z: 0.0
angular:
  x: 0.0
  y: 0.0
  z: 22.857149124145508
---
linear:
  x: 6.575531482696533
  y: 0.0
  z: 0.0
angular:
  x: 0.0
  y: 0.0
  z: 19.267311096191406
---
linear:
  x: 6.7512102127075195
  y: 0.0
  z: 0.0
angular:
  x: 0.0
  y: 0.0
  z: 15.781073570251465
---
linear:
  x: 6.7512102127075195
  y: 0.0
  z: 0.0
angular:
  x: 0.0
  y: 0.0
  z: 15.781073570251465
---
linear:
  x: 6.868384838104248
  y: 0.0
  z: 0.0
angular:
  x: 0.0
  y: 0.0
  z: 50.97992706298828
---
linear:
  x: 6.868384838104248
  y: 0.0
  z: 0.0
angular:
  x: 0.0
  y: 0.0
  z: 50.97992706298828
---
linear:
  x: 6.911055564880371
  y: 0.0
  z: 0.0
angular:
  x: 0.0
  y: 0.0
  z: 48.507293701171875
---
linear:
  x: 6.88654088973999
  y: 0.0
  z: 0.0
angular:
  x: 0.0
  y: 0.0
  z: 46.489112854003906
---
linear:
  x: 6.88654088973999
  y: 0.0
  z: 0.0
angular:
  x: 0.0
  y: 0.0
  z: 46.489112854003906
---
linear:
  x: 6.813785552978516
  y: 0.0
  z: 0.0
angular:
  x: 0.0
  y: 0.0
  z: 45.152313232421875
---
linear:
  x: 6.697628498077393
  y: 0.0
  z: 0.0
angular:
  x: 0.0
  y: 0.0
  z: 43.79911804199219
---
linear:
  x: 6.697628498077393
  y: 0.0
  z: 0.0
angular:
  x: 0.0
  y: 0.0
  z: 43.79911804199219
---
linear:
  x: 6.482412815093994
  y: 0.0
  z: 0.0
angular:
  x: 0.0
  y: 0.0
  z: 38.945655822753906
---
linear:
  x: 6.297152996063232
  y: 0.0
  z: 0.0
angular:
  x: 0.0
  y: 0.0
  z: 34.175533294677734
---
linear:
  x: 6.297152996063232
  y: 0.0
  z: 0.0
angular:
  x: 0.0
  y: 0.0
  z: 34.175533294677734
---
linear:
  x: 6.248501300811768
  y: 0.0
  z: 0.0
angular:
  x: 0.0
  y: 0.0
  z: 29.506982803344727
---
linear:
  x: 6.248501300811768
  y: 0.0
  z: 0.0
angular:
  x: 0.0
  y: 0.0
  z: 29.506982803344727
---
linear:
  x: 6.353175640106201
  y: 0.0
  z: 0.0
angular:
  x: 0.0
  y: 0.0
  z: 25.124160766601562
---
linear:
  x: 6.555273056030273
  y: 0.0
  z: 0.0
angular:
  x: 0.0
  y: 0.0
  z: 20.85310173034668
---
linear:
  x: 6.555273056030273
  y: 0.0
  z: 0.0
angular:
  x: 0.0
  y: 0.0
  z: 20.85310173034668
---
linear:
  x: 6.7523674964904785
  y: 0.0
  z: 0.0
angular:
  x: 0.0
  y: 0.0
  z: 17.610084533691406
---
linear:
  x: 6.90071964263916
  y: 0.0
  z: 0.0
angular:
  x: 0.0
  y: 0.0
  z: 52.148216247558594
---
linear:
  x: 6.90071964263916
  y: 0.0
  z: 0.0
angular:
  x: 0.0
  y: 0.0
  z: 52.148216247558594
---
linear:
  x: 6.974645137786865
  y: 0.0
  z: 0.0
angular:
  x: 0.0
  y: 0.0
  z: 49.476226806640625
---
linear:
  x: 6.974645137786865
  y: 0.0
  z: 0.0
angular:
  x: 0.0
  y: 0.0
  z: 49.476226806640625
---
linear:
  x: 6.99002742767334
  y: 0.0
  z: 0.0
angular:
  x: 0.0
  y: 0.0
  z: 47.65410232543945
---
linear:
  x: 6.942072868347168
  y: 0.0
  z: 0.0
angular:
  x: 0.0
  y: 0.0
  z: 45.82810592651367
---
linear:
  x: 6.942072868347168
  y: 0.0
  z: 0.0
angular:
  x: 0.0
  y: 0.0
  z: 45.82810592651367
---
linear:
  x: 6.751381874084473
  y: 0.0
  z: 0.0
angular:
  x: 0.0
  y: 0.0
  z: 40.919471740722656
---
linear:
  x: 6.540588855743408
  y: 0.0
  z: 0.0
angular:
  x: 0.0
  y: 0.0
  z: 35.85383224487305
---
linear:
  x: 6.540588855743408
  y: 0.0
  z: 0.0
angular:
  x: 0.0
  y: 0.0
  z: 35.85383224487305
---
linear:
  x: 6.442254543304443
  y: 0.0
  z: 0.0
angular:
  x: 0.0
  y: 0.0
  z: 30.91891098022461
---
linear:
  x: 6.442254543304443
  y: 0.0
  z: 0.0
angular:
  x: 0.0
  y: 0.0
  z: 30.91891098022461
---
linear:
  x: 6.509782791137695
  y: 0.0
  z: 0.0
angular:
  x: 0.0
  y: 0.0
  z: 26.323326110839844
---
linear:
  x: 6.704286575317383
  y: 0.0
  z: 0.0
angular:
  x: 0.0
  y: 0.0
  z: 21.826356887817383
---
linear:
  x: 6.704286575317383
  y: 0.0
  z: 0.0
angular:
  x: 0.0
  y: 0.0
  z: 21.826356887817383
---
linear:
  x: 6.912974834442139
  y: 0.0
  z: 0.0
angular:
  x: 0.0
  y: 0.0
  z: 18.39845848083496
---
linear:
  x: 7.080870151519775
  y: 0.0
  z: 0.0
angular:
  x: 0.0
  y: 0.0
  z: 52.76277160644531
---
linear:
  x: 7.080870151519775
  y: 0.0
  z: 0.0
angular:
  x: 0.0
  y: 0.0
  z: 52.76277160644531
---
linear:
  x: 7.17204475402832
  y: 0.0
  z: 0.0
angular:
  x: 0.0
  y: 0.0
  z: 49.950233459472656
---
linear:
  x: 7.17204475402832
  y: 0.0
  z: 0.0
angular:
  x: 0.0
  y: 0.0
  z: 49.950233459472656
---
linear:
  x: 7.201268196105957
  y: 0.0
  z: 0.0
angular:
  x: 0.0
  y: 0.0
  z: 48.03235626220703
---
linear:
  x: 7.162196159362793
  y: 0.0
  z: 0.0
angular:
  x: 0.0
  y: 0.0
  z: 46.1132698059082
---
linear:
  x: 7.162196159362793
  y: 0.0
  z: 0.0
angular:
  x: 0.0
  y: 0.0
  z: 46.1132698059082
---
linear:
  x: 6.971030235290527
  y: 0.0
  z: 0.0
angular:
  x: 0.0
  y: 0.0
  z: 41.15134048461914
---
linear:
  x: 6.7528486251831055
  y: 0.0
  z: 0.0
angular:
  x: 0.0
  y: 0.0
  z: 36.03263854980469
---
linear:
  x: 6.7528486251831055
  y: 0.0
  z: 0.0
angular:
  x: 0.0
  y: 0.0
  z: 36.03263854980469
---
linear:
  x: 6.647132396697998
  y: 0.0
  z: 0.0
angular:
  x: 0.0
  y: 0.0
  z: 31.05497932434082
---
linear:
  x: 6.647132396697998
  y: 0.0
  z: 0.0
angular:
  x: 0.0
  y: 0.0
  z: 31.05497932434082
---
linear:
  x: 6.712855815887451
  y: 0.0
  z: 0.0
angular:
  x: 0.0
  y: 0.0
  z: 26.430879592895508
---
linear:
  x: 6.912051200866699
  y: 0.0
  z: 0.0
angular:
  x: 0.0
  y: 0.0
  z: 21.904157638549805
---
linear:
  x: 6.912051200866699
  y: 0.0
  z: 0.0
angular:
  x: 0.0
  y: 0.0
  z: 21.904157638549805
---
linear:
  x: 7.127666473388672
  y: 0.0
  z: 0.0
angular:
  x: 0.0
  y: 0.0
  z: 18.457279205322266
---
linear:
  x: 7.3018927574157715
  y: 0.0
  z: 0.0
angular:
  x: 0.0
  y: 0.0
  z: 52.80357360839844
---
linear:
  x: 7.3018927574157715
  y: 0.0
  z: 0.0
angular:
  x: 0.0
  y: 0.0
  z: 52.80357360839844
---
linear:
  x: 7.396843433380127
  y: 0.0
  z: 0.0
angular:
  x: 0.0
  y: 0.0
  z: 49.977699279785156
---
linear:
  x: 7.396843433380127
  y: 0.0
  z: 0.0
angular:
  x: 0.0
  y: 0.0
  z: 49.977699279785156
---
linear:
  x: 7.427699565887451
  y: 0.0
  z: 0.0
angular:
  x: 0.0
  y: 0.0
  z: 48.05219650268555
---
linear:
  x: 7.387864589691162
  y: 0.0
  z: 0.0
angular:
  x: 0.0
  y: 0.0
  z: 46.12562561035156
---
linear:
  x: 7.387864589691162
  y: 0.0
  z: 0.0
angular:
  x: 0.0
  y: 0.0
  z: 46.12562561035156
---
linear:
  x: 7.190910339355469
  y: 0.0
  z: 0.0
angular:
  x: 0.0
  y: 0.0
  z: 41.159976959228516
---
linear:
  x: 6.9658684730529785
  y: 0.0
  z: 0.0
angular:
  x: 0.0
  y: 0.0
  z: 36.03752899169922
---
linear:
  x: 6.9658684730529785
  y: 0.0
  z: 0.0
angular:
  x: 0.0
  y: 0.0
  z: 36.03752899169922
---
linear:
  x: 6.856757640838623
  y: 0.0
  z: 0.0
angular:
  x: 0.0
  y: 0.0
  z: 31.05730438232422
---
linear:
  x: 6.856757640838623
  y: 0.0
  z: 0.0
angular:
  x: 0.0
  y: 0.0
  z: 31.05730438232422
---
linear:
  x: 6.924509048461914
  y: 0.0
  z: 0.0
angular:
  x: 0.0
  y: 0.0
  z: 26.4320125579834
---
linear:
  x: 7.129981517791748
  y: 0.0
  z: 0.0
angular:
  x: 0.0
  y: 0.0
  z: 21.90410804748535
---
linear:
  x: 7.129981517791748
  y: 0.0
  z: 0.0
angular:
  x: 0.0
  y: 0.0
  z: 21.90410804748535
---
linear:
  x: 7.352397441864014
  y: 0.0
  z: 0.0
angular:
  x: 0.0
  y: 0.0
  z: 18.456775665283203
---
linear:
  x: 7.532098770141602
  y: 0.0
  z: 0.0
angular:
  x: 0.0
  y: 0.0
  z: 52.80262756347656
---
linear:
  x: 7.532098770141602
  y: 0.0
  z: 0.0
angular:
  x: 0.0
  y: 0.0
  z: 52.80262756347656
---
linear:
  x: 7.630005836486816
  y: 0.0
  z: 0.0
angular:
  x: 0.0
  y: 0.0
  z: 49.97654342651367
---
linear:
  x: 7.630005836486816
  y: 0.0
  z: 0.0
angular:
  x: 0.0
  y: 0.0
  z: 49.97654342651367
---
linear:
  x: 7.66179084777832
  y: 0.0
  z: 0.0
angular:
  x: 0.0
  y: 0.0
  z: 48.05105209350586
---
linear:
  x: 7.6206583976745605
  y: 0.0
  z: 0.0
angular:
  x: 0.0
  y: 0.0
  z: 46.12448501586914
---
linear:
  x: 7.6206583976745605
  y: 0.0
  z: 0.0
angular:
  x: 0.0
  y: 0.0
  z: 46.12448501586914
---
linear:
  x: 7.417471408843994
  y: 0.0
  z: 0.0
angular:
  x: 0.0
  y: 0.0
  z: 41.158897399902344
---
linear:
  x: 7.18534517288208
  y: 0.0
  z: 0.0
angular:
  x: 0.0
  y: 0.0
  z: 36.0365104675293
---
linear:
  x: 7.18534517288208
  y: 0.0
  z: 0.0
angular:
  x: 0.0
  y: 0.0
  z: 36.0365104675293
---
linear:
  x: 7.072828769683838
  y: 0.0
  z: 0.0
angular:
  x: 0.0
  y: 0.0
  z: 31.056377410888672
---
linear:
  x: 7.072828769683838
  y: 0.0
  z: 0.0
angular:
  x: 0.0
  y: 0.0
  z: 31.056377410888672
---
linear:
  x: 7.142746448516846
  y: 0.0
  z: 0.0
angular:
  x: 0.0
  y: 0.0
  z: 26.43120574951172
---
linear:
  x: 7.354707717895508
  y: 0.0
  z: 0.0
angular:
  x: 0.0
  y: 0.0
  z: 21.903430938720703
---
linear:
  x: 7.354707717895508
  y: 0.0
  z: 0.0
angular:
  x: 0.0
  y: 0.0
  z: 21.903430938720703
---
linear:
  x: 7.584129810333252
  y: 0.0
  z: 0.0
angular:
  x: 0.0
  y: 0.0
  z: 18.456214904785156
---
linear:
  x: 7.769482135772705
  y: 0.0
  z: 0.0
angular:
  x: 0.0
  y: 0.0
  z: 52.80217742919922
---
linear:
  x: 7.769482135772705
  y: 0.0
  z: 0.0
angular:
  x: 0.0
  y: 0.0
  z: 52.80217742919922
---
linear:
  x: 7.870462417602539
  y: 0.0
  z: 0.0
angular:
  x: 0.0
  y: 0.0
  z: 49.97618103027344
---
linear:
  x: 7.870462417602539
  y: 0.0
  z: 0.0
angular:
  x: 0.0
  y: 0.0
  z: 49.97618103027344
---
linear:
  x: 7.903238296508789
  y: 0.0
  z: 0.0
angular:
  x: 0.0
  y: 0.0
  z: 48.050758361816406
---
linear:
  x: 7.860800266265869
  y: 0.0
  z: 0.0
angular:
  x: 0.0
  y: 0.0
  z: 46.1242561340332
---
